[
  {
    "name": "Cher Thai Eatery",
    "Address": "Cher Thai Eatery, London, UK",
    "lat": 51.46659323,
    "lng": -0.142351298,
    "type": "Restaurant",
    "price_text": "££",
    "comment": "Our favourite local restaurant! Cameron recommends: Pad Kee Mao, Amanda recommends: Yellow Curry Noodles"
  },
  {
    "name": "The Sun",
    "Address": "The Sun, London, UK",
    "lat": 51.4639899,
    "lng": -0.140957334,
    "type": "Pub",
    "price_text": "££",
    "comment": "A great pub garden for when the sun is shining! Live music and pub quizzes throughout the week."
  },
  {
    "name": "Infernos",
    "Address": "Infernos, London, UK",
    "lat": 51.462703,
    "lng": -0.135901,
    "type": "Nightlife",
    "price_text": "",
    "comment": "If the wedding isn't enough dancing for you, Infernos has you covered!"
  },
  {
    "name": "Clapham Common",
    "Address": "Clapham Common, London, UK",
    "lat": 51.4583791,
    "lng": -0.148957541,
    "type": "Park",
    "price_text": "",
    "comment": "Take a stroll through our local park. You might find Cameron playing touch rugby here!"
  },
  {
    "name": "Battersea Power Station",
    "Address": "Battersea Power Station, London, UK",
    "lat": 51.48177375,
    "lng": -0.144582086,
    "type": "Point of Interest",
    "price_text": "",
    "comment": "Former power station turned shopping centre. Fans of Pink Floyd should keep an eye out for flying pigs!"
  },
  {
    "name": "Battersea Park",
    "Address": "Battersea Park, London, UK",
    "lat": 51.4792126,
    "lng": -0.157058321,
    "type": "Park",
    "price_text": "",
    "comment": "Large park with scenic views across the river. If you fancy a morning jog, you can do worse than a few laps around here."
  },
  {
    "name": "Tate Britain",
    "Address": "Tate Britain, London, UK",
    "lat": 51.4911182,
    "lng": -0.127818784,
    "type": "Museum",
    "price_text": "",
    "comment": ""
  },
  {
    "name": "Chelsea Potter",
    "Address": "Chelsea Potter, London, UK",
    "lat": 51.4885039,
    "lng": -0.165921355,
    "type": "Pub",
    "price_text": "",
    "comment": ""
  },
  {
    "name": "Mucci's",
    "Address": "Mucci's, London, UK",
    "lat": 51.482975,
    "lng": -0.178115,
    "type": "Restaurant",
    "price_text": "£££",
    "comment": "London's best carbonara. Trust us, we've checked everywhere."
  },
  {
    "name": "Regency Cafe",
    "Address": "Regency Cafe, London, UK",
    "lat": 51.49400195,
    "lng": -0.132094809,
    "type": "Restaurant",
    "price_text": "",
    "comment": "A proper full english breakfast. Don't come here if you have a suit to squeeze into later!"
  },
  {
    "name": "Tamesis Dock",
    "Address": "Tamesis Dock, London, UK",
    "lat": 51.4919181,
    "lng": -0.122191587,
    "type": "Pub",
    "price_text": "",
    "comment": ""
  },
  {
    "name": "The Ship",
    "Address": "The Ship, London, UK",
    "lat": 51.46353072,
    "lng": -0.187980885,
    "type": "Pub",
    "price_text": "",
    "comment": ""
  },
  {
    "name": "Westminster Abbey",
    "Address": "Westminster Abbey, London, UK",
    "lat": 51.499399,
    "lng": -0.127391048,
    "type": "Point of Interest",
    "price_text": "",
    "comment": ""
  },
  {
    "name": "Buckingham Palace",
    "Address": "Buckingham Palace, London, UK",
    "lat": 51.5008349,
    "lng": -0.143004526,
    "type": "Point of Interest",
    "price_text": "",
    "comment": "The house of some guy named Charlie."
  },
  {
    "name": "Harrods",
    "Address": "Harrods, London, UK",
    "lat": 51.4992104,
    "lng": -0.162989315,
    "type": "Point of Interest",
    "price_text": "",
    "comment": ""
  },
  {
    "name": "Victoria and Albert Museum",
    "Address": "Victoria and Albert Museum, London, UK",
    "lat": 51.4968838,
    "lng": -0.171637217,
    "type": "Museum",
    "price_text": "",
    "comment": ""
  },
  {
    "name": "The National Covid Memorial Wall",
    "Address": "The National Covid Memorial Wall, London, UK",
    "lat": 51.4999572,
    "lng": -0.1200594,
    "type": "Point of Interest",
    "price_text": "",
    "comment": ""
  },
  {
    "name": "Parliament Square Garden",
    "Address": "Parliament Square Garden, London, UK",
    "lat": 51.500305,
    "lng": -0.126373,
    "type": "Point of Interest",
    "price_text": "",
    "comment": ""
  },
  {
    "name": "Big Ben",
    "Address": "Big Ben, London, UK",
    "lat": 51.50069973,
    "lng": -0.124551237,
    "type": "Point of Interest",
    "price_text": "",
    "comment": "Please tell me I don't have to describe this one to you?"
  },
  {
    "name": "Churchill War Rooms",
    "Address": "Churchill War Rooms, London, UK",
    "lat": 51.5022144,
    "lng": -0.129252181,
    "type": "Museum",
    "price_text": "",
    "comment": ""
  },
  {
    "name": "Imperial War Museum",
    "Address": "Imperial War Museum, London, UK",
    "lat": 51.4969399,
    "lng": -0.109806,
    "type": "Museum",
    "price_text": "",
    "comment": ""
  },
  {
    "name": "Natural History Museum",
    "Address": "Natural History Museum, London, UK",
    "lat": 51.4965109,
    "lng": -0.176001907,
    "type": "Museum",
    "price_text": "",
    "comment": ""
  },
  {
    "name": "The Red Lion",
    "Address": "The Red Lion, London, UK",
    "lat": 51.50210606,
    "lng": -0.125662173,
    "type": "Pub",
    "price_text": "££",
    "comment": "A favourite hangout of politicians and journalists. Supposedly the pub is bugged by the foreign governments, so a great place to discuss any state secrets you may have."
  },
  {
    "name": "10 Downing Street",
    "Address": "10 Downing Street, London, UK",
    "lat": 51.50348775,
    "lng": -0.127696454,
    "type": "Point of Interest",
    "price_text": "",
    "comment": "Home and office of the Prime Minister. Feel like protesting anything? Here's your place to get vocal."
  },
  {
    "name": "The London Dungeon",
    "Address": "The London Dungeon, London, UK",
    "lat": 51.5026002,
    "lng": -0.1192189,
    "type": "Point of Interest",
    "price_text": "",
    "comment": ""
  },
  {
    "name": "Chutney Mary",
    "Address": "Chutney Mary, London, UK",
    "lat": 51.5056905,
    "lng": -0.138682,
    "type": "Restaurant",
    "price_text": "££££",
    "comment": "Excellent upmarket Indian restaurant. Cameron was once given a free dessert for Fathers day here, which is not sure how to feel about."
  },
  {
    "name": "Royal Horse Guards",
    "Address": "Royal Horse Guards, London, UK",
    "lat": 51.50477635,
    "lng": -0.127225399,
    "type": "Point of Interest",
    "price_text": "",
    "comment": "Iconic official entrance to St James' and Buckingham palace. Don't get too close to the horses or you may end up in a Youtube compilation video,"
  },
  {
    "name": "The London Eye",
    "Address": "The London Eye, London, UK",
    "lat": 51.5029722,
    "lng": -0.1188456,
    "type": "Point of Interest",
    "price_text": "",
    "comment": ""
  },
  {
    "name": "Chesterfield Arms",
    "Address": "Chesterfield Arms, London, UK",
    "lat": 51.50621832,
    "lng": -0.147771703,
    "type": "Pub",
    "price_text": "£££",
    "comment": ""
  },
  {
    "name": "The Wolseley",
    "Address": "The Wolseley, London, UK",
    "lat": 51.50739265,
    "lng": -0.140907209,
    "type": "Restaurant",
    "price_text": "££££",
    "comment": ""
  },
  {
    "name": "The Mall",
    "Address": "The Mall, London, UK",
    "lat": 51.50436358,
    "lng": -0.134449101,
    "type": "Point of Interest",
    "price_text": "",
    "comment": ""
  },
  {
    "name": "Between the Bridges",
    "Address": "Between the Bridges, London, UK",
    "lat": 51.50500285,
    "lng": -0.118377694,
    "type": "Nightlife",
    "price_text": "",
    "comment": ""
  },
  {
    "name": "Gymkhana",
    "Address": "Gymkhana, London, UK",
    "lat": 51.5084811,
    "lng": -0.1414863,
    "type": "Restaurant",
    "price_text": "",
    "comment": ""
  },
  {
    "name": "The Dover",
    "Address": "The Dover, London, UK",
    "lat": 51.50889202,
    "lng": -0.142980109,
    "type": "Restaurant",
    "price_text": "££££",
    "comment": ""
  },
  {
    "name": "Trafalgar Square",
    "Address": "Trafalgar Square, London, UK",
    "lat": 51.50845015,
    "lng": -0.128449925,
    "type": "Point of Interest",
    "price_text": "",
    "comment": ""
  },
  {
    "name": "Mercato Metropolitano",
    "Address": "Mercato Metropolitano, London, UK",
    "lat": 51.4984913,
    "lng": -0.098658217,
    "type": "Nightlife",
    "price_text": "££",
    "comment": ""
  },
  {
    "name": "Sexy Fish",
    "Address": "Sexy Fish, London, UK",
    "lat": 51.5093701,
    "lng": -0.144320884,
    "type": "Restaurant",
    "price_text": "£££",
    "comment": ""
  },
  {
    "name": "Isabel",
    "Address": "Isabel, London, UK",
    "lat": 51.50964613,
    "lng": -0.142734882,
    "type": "Restaurant",
    "price_text": "£££",
    "comment": ""
  },
  {
    "name": "Hyde Park",
    "Address": "Hyde Park, London, UK",
    "lat": 51.5074889,
    "lng": -0.162207406,
    "type": "Park",
    "price_text": "",
    "comment": ""
  },
  {
    "name": "Veeraswamy",
    "Address": "Veeraswamy, London, UK",
    "lat": 51.5098955,
    "lng": -0.1379192,
    "type": "Restaurant",
    "price_text": "",
    "comment": ""
  },
  {
    "name": "The Connaught",
    "Address": "The Connaught, London, UK",
    "lat": 51.51018155,
    "lng": -0.150215272,
    "type": "Pub",
    "price_text": "",
    "comment": "Swanky hotel famous for their bar. Make sure you try their signature dry martini!"
  },
  {
    "name": "National Portrait Gallery",
    "Address": "National Portrait Gallery, London, UK",
    "lat": 51.5092842,
    "lng": -0.128319375,
    "type": "Museum",
    "price_text": "",
    "comment": ""
  },
  {
    "name": "The Book of Mormon - Musical",
    "Address": "The Book of Mormon - Musical, London, UK",
    "lat": 51.5102264,
    "lng": -0.132062067,
    "type": "Point of Interest",
    "price_text": "",
    "comment": ""
  },
  {
    "name": "Southbank Book Market",
    "Address": "Southbank Book Market, London, UK",
    "lat": 51.50737304,
    "lng": -0.115787708,
    "type": "Shopping",
    "price_text": "",
    "comment": ""
  },
  {
    "name": "SOMA",
    "Address": "SOMA, London, UK",
    "lat": 51.51089672,
    "lng": -0.135264603,
    "type": "Nightlife",
    "price_text": "",
    "comment": ""
  },
  {
    "name": "Leicester Square",
    "Address": "Leicester Square, London, UK",
    "lat": 51.51077657,
    "lng": -0.130274972,
    "type": "Point of Interest",
    "price_text": "",
    "comment": ""
  },
  {
    "name": "Waxy O'Connor's",
    "Address": "Waxy O'Connor's, London, UK",
    "lat": 51.51082,
    "lng": -0.13234,
    "type": "Nightlife",
    "price_text": "",
    "comment": ""
  },
  {
    "name": "Kiln",
    "Address": "Kiln, London, UK",
    "lat": 51.5113507,
    "lng": -0.1359965,
    "type": "Restaurant",
    "price_text": "",
    "comment": ""
  },
  {
    "name": "Chinatown London",
    "Address": "Chinatown London, London, UK",
    "lat": 51.51170609,
    "lng": -0.131240044,
    "type": "Shopping",
    "price_text": "",
    "comment": ""
  },
  {
    "name": "Cahoots",
    "Address": "Cahoots, London, UK",
    "lat": 51.51232525,
    "lng": -0.138740915,
    "type": "Nightlife",
    "price_text": "",
    "comment": ""
  },
  {
    "name": "Guanghwa Bookshop",
    "Address": "Guanghwa Bookshop, London, UK",
    "lat": 51.5123055,
    "lng": -0.13081149,
    "type": "Shopping",
    "price_text": "",
    "comment": ""
  },
  {
    "name": "Dishoom",
    "Address": "Dishoom, London, UK",
    "lat": 51.51311363,
    "lng": -0.139780366,
    "type": "Restaurant",
    "price_text": "",
    "comment": ""
  },
  {
    "name": "Star & Garter",
    "Address": "Star & Garter, London, UK",
    "lat": 51.51362575,
    "lng": -0.13656746,
    "type": "Pub",
    "price_text": "",
    "comment": ""
  },
  {
    "name": "Marble Arch",
    "Address": "Marble Arch, London, UK",
    "lat": 51.5131841,
    "lng": -0.15890525,
    "type": "Point of Interest",
    "price_text": "",
    "comment": ""
  },
  {
    "name": "Barrafina",
    "Address": "Barrafina, London, UK",
    "lat": 51.5140756,
    "lng": -0.1326481,
    "type": "Restaurant",
    "price_text": "",
    "comment": ""
  },
  {
    "name": "Selfridges",
    "Address": "Selfridges, London, UK",
    "lat": 51.51459555,
    "lng": -0.15282936,
    "type": "Point of Interest",
    "price_text": "",
    "comment": ""
  },
  {
    "name": "Tamarind Kitchen",
    "Address": "Tamarind Kitchen, London, UK",
    "lat": 51.5146779,
    "lng": -0.1350279,
    "type": "Restaurant",
    "price_text": "£££",
    "comment": ""
  },
  {
    "name": "Foyles",
    "Address": "Foyles, London, UK",
    "lat": 51.51427255,
    "lng": -0.130082991,
    "type": "Shopping",
    "price_text": "",
    "comment": ""
  },
  {
    "name": "Toklas",
    "Address": "Toklas, London, UK",
    "lat": 51.5116118,
    "lng": -0.1149766,
    "type": "Restaurant",
    "price_text": "",
    "comment": ""
  },
  {
    "name": "Soho Square Gardens",
    "Address": "Soho Square Gardens, London, UK",
    "lat": 51.5152892,
    "lng": -0.132210323,
    "type": "Point of Interest",
    "price_text": "",
    "comment": ""
  },
  {
    "name": "Tate Modern",
    "Address": "Tate Modern, London, UK",
    "lat": 51.5074293,
    "lng": -0.099341649,
    "type": "Museum",
    "price_text": "",
    "comment": ""
  },
  {
    "name": "The Sheaf",
    "Address": "The Sheaf, London, UK",
    "lat": 51.5048141,
    "lng": -0.0911485,
    "type": "Pub",
    "price_text": "",
    "comment": ""
  },
  {
    "name": "Katzenjammers",
    "Address": "Katzenjammers, London, UK",
    "lat": 51.5048353,
    "lng": -0.0909682,
    "type": "Nightlife",
    "price_text": "",
    "comment": ""
  },
  {
    "name": "Kolae",
    "Address": "Kolae, London, UK",
    "lat": 51.505443,
    "lng": -0.0915899,
    "type": "Restaurant",
    "price_text": "££",
    "comment": ""
  },
  {
    "name": "Wright Brothers",
    "Address": "Wright Brothers, London, UK",
    "lat": 51.50558355,
    "lng": -0.091594185,
    "type": "Restaurant",
    "price_text": "",
    "comment": ""
  },
  {
    "name": "The Wallace Collection",
    "Address": "The Wallace Collection, London, UK",
    "lat": 51.5175166,
    "lng": -0.153043644,
    "type": "Museum",
    "price_text": "",
    "comment": ""
  },
  {
    "name": "Padella",
    "Address": "Padella, London, UK",
    "lat": 51.505138,
    "lng": -0.089912436,
    "type": "Restaurant",
    "price_text": "",
    "comment": ""
  },
  {
    "name": "OMA",
    "Address": "OMA, London, UK",
    "lat": 51.5053404,
    "lng": -0.0900773,
    "type": "Restaurant",
    "price_text": "",
    "comment": ""
  },
  {
    "name": "Anchor Bankside",
    "Address": "Anchor Bankside, London, UK",
    "lat": 51.50726295,
    "lng": -0.09303273,
    "type": "Pub",
    "price_text": "",
    "comment": ""
  },
  {
    "name": "The Clink Prison Museum",
    "Address": "The Clink Prison Museum, London, UK",
    "lat": 51.507089,
    "lng": -0.092007,
    "type": "Museum",
    "price_text": "",
    "comment": ""
  },
  {
    "name": "The Shard",
    "Address": "The Shard, London, UK",
    "lat": 51.5043655,
    "lng": -0.086474093,
    "type": "Point of Interest",
    "price_text": "",
    "comment": ""
  },
  {
    "name": "Chiltern Firehouse",
    "Address": "Chiltern Firehouse, London, UK",
    "lat": 51.51875417,
    "lng": -0.154880587,
    "type": "Nightlife",
    "price_text": "",
    "comment": ""
  },
  {
    "name": "Al Dente",
    "Address": "Al Dente, London, UK",
    "lat": 51.51910175,
    "lng": -0.136054443,
    "type": "Restaurant",
    "price_text": "£",
    "comment": ""
  },
  {
    "name": "The British Museum",
    "Address": "The British Museum, London, UK",
    "lat": 51.51944665,
    "lng": -0.126978059,
    "type": "Museum",
    "price_text": "",
    "comment": ""
  },
  {
    "name": "Paternoster Chop House",
    "Address": "Paternoster Chop House, London, UK",
    "lat": 51.5145763,
    "lng": -0.0996723,
    "type": "Restaurant",
    "price_text": "",
    "comment": ""
  },
  {
    "name": "Daunt Books",
    "Address": "Daunt Books, London, UK",
    "lat": 51.52043705,
    "lng": -0.152250414,
    "type": "Shopping",
    "price_text": "",
    "comment": ""
  },
  {
    "name": "Moor Beer Vaults",
    "Address": "Moor Beer Vaults, London, UK",
    "lat": 51.4978208,
    "lng": -0.0727331,
    "type": "Pub",
    "price_text": "",
    "comment": ""
  },
  {
    "name": "The River Cafe",
    "Address": "The River Cafe, London, UK",
    "lat": 51.4840371,
    "lng": -0.224212,
    "type": "Restaurant",
    "price_text": "",
    "comment": ""
  },
  {
    "name": "BT Tower",
    "Address": "BT Tower, London, UK",
    "lat": 51.5214383,
    "lng": -0.138804702,
    "type": "Point of Interest",
    "price_text": "",
    "comment": ""
  },
  {
    "name": "St Paul's Cathedral",
    "Address": "St Paul's Cathedral, London, UK",
    "lat": 51.51378715,
    "lng": -0.098450551,
    "type": "Point of Interest",
    "price_text": "",
    "comment": ""
  },
  {
    "name": "F1 Arcade",
    "Address": "F1 Arcade, London, UK",
    "lat": 51.513897,
    "lng": -0.0960078,
    "type": "Pub",
    "price_text": "",
    "comment": ""
  },
  {
    "name": "The Queen's Walk",
    "Address": "The Queen's Walk, London, UK",
    "lat": 51.50213321,
    "lng": -0.119667905,
    "type": "Point of Interest",
    "price_text": "",
    "comment": ""
  },
  {
    "name": "Monument to the Great Fire of London",
    "Address": "Monument to the Great Fire of London, London, UK",
    "lat": 51.5101415,
    "lng": -0.0859491,
    "type": "Point of Interest",
    "price_text": "",
    "comment": ""
  },
  {
    "name": "St Dunstan in the East Church Garden",
    "Address": "St Dunstan in the East Church Garden, London, UK",
    "lat": 51.5096815,
    "lng": -0.082480158,
    "type": "Point of Interest",
    "price_text": "",
    "comment": ""
  },
  {
    "name": "Tower Bridge",
    "Address": "Tower Bridge, London, UK",
    "lat": 51.5055166,
    "lng": -0.0753662,
    "type": "Point of Interest",
    "price_text": "",
    "comment": ""
  },
  {
    "name": "Sky Garden",
    "Address": "Sky Garden, London, UK",
    "lat": 51.51126995,
    "lng": -0.083539578,
    "type": "Point of Interest",
    "price_text": "",
    "comment": ""
  },
  {
    "name": "Leadenhall Market",
    "Address": "Leadenhall Market, London, UK",
    "lat": 51.5127276,
    "lng": -0.083395313,
    "type": "Point of Interest",
    "price_text": "",
    "comment": ""
  },
  {
    "name": "Tower of London",
    "Address": "Tower of London, London, UK",
    "lat": 51.508217,
    "lng": -0.076187903,
    "type": "Point of Interest",
    "price_text": "",
    "comment": ""
  },
  {
    "name": "Barbican Centre",
    "Address": "Barbican Centre, London, UK",
    "lat": 51.5198685,
    "lng": -0.093969294,
    "type": "Museum",
    "price_text": "",
    "comment": ""
  },
  {
    "name": "The Quality Chop House",
    "Address": "The Quality Chop House, London, UK",
    "lat": 51.5247032,
    "lng": -0.1099605,
    "type": "Restaurant",
    "price_text": "££££",
    "comment": ""
  },
  {
    "name": "SUSHISAMBA",
    "Address": "SUSHISAMBA, London, UK",
    "lat": 51.512395,
    "lng": -0.1224698,
    "type": "Restaurant",
    "price_text": "",
    "comment": ""
  },
  {
    "name": "Regent's Park",
    "Address": "Regent's Park, London, UK",
    "lat": 51.530107,
    "lng": -0.153769134,
    "type": "Park",
    "price_text": "",
    "comment": ""
  },
  {
    "name": "King's Cross St. Pancras Station",
    "Address": "King's Cross St. Pancras Station, London, UK",
    "lat": 51.530609,
    "lng": -0.1239491,
    "type": "Point of Interest",
    "price_text": "",
    "comment": ""
  },
  {
    "name": "Abbey Road",
    "Address": "Abbey Road, London, UK",
    "lat": 51.53574011,
    "lng": -0.181584519,
    "type": "Point of Interest",
    "price_text": "",
    "comment": ""
  },
  {
    "name": "Brick Lane Vintage Market",
    "Address": "Brick Lane Vintage Market, London, UK",
    "lat": 51.5207536,
    "lng": -0.0719854,
    "type": "Shopping",
    "price_text": "",
    "comment": ""
  },
  {
    "name": "Coal Drops Yard",
    "Address": "Coal Drops Yard, London, UK",
    "lat": 51.53554,
    "lng": -0.126484,
    "type": "Shopping",
    "price_text": "",
    "comment": ""
  },
  {
    "name": "The Blues Kitchen",
    "Address": "The Blues Kitchen, London, UK",
    "lat": 51.52655855,
    "lng": -0.080158644,
    "type": "Nightlife",
    "price_text": "",
    "comment": ""
  },
  {
    "name": "Old St. Records",
    "Address": "Old St. Records, London, UK",
    "lat": 51.52681,
    "lng": -0.080559897,
    "type": "Nightlife",
    "price_text": "",
    "comment": ""
  },
  {
    "name": "Smokestak",
    "Address": "Smokestak, London, UK",
    "lat": 51.5236575,
    "lng": -0.072833,
    "type": "Restaurant",
    "price_text": "",
    "comment": ""
  },
  {
    "name": "Primrose Hill",
    "Address": "Primrose Hill, London, UK",
    "lat": 53.5822661,
    "lng": -0.2614143,
    "type": "Park",
    "price_text": "",
    "comment": ""
  },
  {
    "name": "Camden Market",
    "Address": "Camden Market, London, UK",
    "lat": 51.5419498,
    "lng": -0.1395276,
    "type": "Shopping",
    "price_text": "",
    "comment": ""
  },
  {
    "name": "The Tamil Prince",
    "Address": "The Tamil Prince, London, UK",
    "lat": 51.5409325,
    "lng": -0.1138144,
    "type": "Restaurant",
    "price_text": "",
    "comment": ""
  },
  {
    "name": "Columbia Road Shops & Flower Market",
    "Address": "Columbia Road Shops & Flower Market, London, UK",
    "lat": 51.52913555,
    "lng": -0.069800429,
    "type": "Shopping",
    "price_text": "",
    "comment": ""
  },
  {
    "name": "Royal Observatory Greenwich",
    "Address": "Royal Observatory Greenwich, London, UK",
    "lat": 51.47736225,
    "lng": -0.000845593,
    "type": "Point of Interest",
    "price_text": "",
    "comment": ""
  },
  {
    "name": "Kew Gardens",
    "Address": "Kew Gardens, London, UK",
    "lat": 51.47819745,
    "lng": -0.296886085,
    "type": "Point of Interest",
    "price_text": "",
    "comment": ""
  },
  {
    "name": "Highgate Cemetery",
    "Address": "Highgate Cemetery, London, UK",
    "lat": 51.5677764,
    "lng": -0.148593554,
    "type": "Park",
    "price_text": "",
    "comment": ""
  },
  {
    "name": "The Prince's Head",
    "Address": "The Prince's Head, London, UK",
    "lat": 51.4604368,
    "lng": -0.306396111,
    "type": "Pub",
    "price_text": "",
    "comment": ""
  },
  {
    "name": "Richmond Green",
    "Address": "Richmond Green, London, UK",
    "lat": 51.461606007146166,
    "lng":  -0.30679789135632224,
    "type": "Park",
    "price_text": "",
    "comment": ""
  },
  {
    "name": "The Faltering Fullback",
    "Address": "The Faltering Fullback, London, UK",
    "lat": 51.5685203,
    "lng": -0.108198894,
    "type": "Pub",
    "price_text": "",
    "comment": ""
  },
  {
    "name": "Hackney Wick",
    "Address": "Hackney Wick, London, UK",
    "lat": 51.544354,
    "lng": -0.0254673,
    "type": "Point of Interest",
    "price_text": "",
    "comment": ""
  },
  {
    "name": "ABBA Voyage",
    "Address": "ABBA Voyage, London, UK",
    "lat": 51.5333994,
    "lng": -0.0129913,
    "type": "Point of Interest",
    "price_text": "",
    "comment": ""
  },
  {
    "name": "Abney Park",
    "Address": "Abney Park, London, UK",
    "lat": 51.56443015,
    "lng": -0.077744902,
    "type": "Park",
    "price_text": "",
    "comment": ""
  },
  {
    "name": "Wembley Stadium",
    "Address": "Wembley Stadium, London, UK",
    "lat": 51.55606945,
    "lng": -0.279603394,
    "type": "Point of Interest",
    "price_text": "",
    "comment": ""
  },
  {
    "name": "Warner Bros. Studio Tour",
    "Address": "Warner Bros. Studio Tour, London, UK",
    "lat": 51.688863,
    "lng": -0.4176559,
    "type": "Point of Interest",
    "price_text": "",
    "comment": ""
  }
]